{
    "marker1": {
        "name": "고려대학교 녹지운동장",
        "lat": 37.591407,
        "lng": 127.024937,
        "address" : "서울특별시 성북구 돈암동 173-7"
    },
    "marker2": {
        "name": "성내유수지 축구장",
        "lat": 37.5264488,
        "lng": 127.1199714,
        "address" : "서울특별시 송파구 방이동 88-13"
    },
    "marker3": {
        "name": "송파구 여성축구장",
        "lat": 37.5243901,
        "lng": 127.118536,
        "address" : "서울특별시 송파구 방이동 88-10"
    },
    "marker4": {
        "name": "탄천유수지",
        "lat": 37.4968788,
        "lng": 127.099293,
        "address" : "서울 송파구 삼학사로2길 49"
    },
    "marker5": {
        "name": "천마공원축구장",
        "lat": 37.50036,
        "lng": 127.1601091,
        "address" : "서울 송파구 마천동 산1-5"
    },
    "marker6": {
        "name": "천마풋살파크",
        "lat": 37.5023158,
        "lng": 127.1534019,
        "address" : "서울 송파구 성내천로29길 28"
    },
    "marker7": {
        "name": "천마풋살아레나",
        "lat": 37.5106481,
        "lng": 127.1460234,
        "address" : "경기 하남시 동남로424번길 84"
    },
    "marker8": {
        "name": "아디다스 더 베이스 서울",
        "lat": 37.5288539,
        "lng": 126.9640447,
        "address" : "서울 용산구 한강대로23길 55 현대아이파크몰 리빙파크 9층"
    },
    "marker9": {
        "name": "월곡 인조잔디 축구장",
        "lat": 37.6085014,
        "lng": 127.0405197,
        "address" : "서울 성북구 화랑로13길 144 성북구민체육관"
    },
    "marker10": {
        "name": "잠실어울림 축구장",
        "lat": 37.503412,
        "lng": 127.0775794,
        "address" : "서울특별시 송파구 도곡로62길 10"
    },
    "marker11": {
        "name": "대치유수지 체육공원",
        "lat": 37.5050439,
        "lng": 127.0677125,
        "address" : "서울특별시 강남구 대치동 78-20"
    },
    "marker12": {
        "name": "용마폭포공원 축구장",
        "lat": 37.5743984,
        "lng": 127.0901063,
        "address" :"서울특별시 중랑구 용마산로 250"
    }
}
